{"AF":{"name":"Afghanistan","code":"AF","code3":"AFG","numCode":4,"latitude":33,"longitude":65},"AL":{"name":"Albania","code":"AL","code3":"ALB","numCode":8,"latitude":41,"longitude":20},"DZ":{"name":"Algeria","code":"DZ","code3":"DZA","numCode":12,"latitude":28,"longitude":3},"AS":{"name":"American Samoa","code":"AS","code3":"ASM","numCode":16,"latitude":-14.3333,"longitude":-170},"AD":{"name":"Andorra","code":"AD","code3":"AND","numCode":20,"latitude":42.5,"longitude":1.6},"AO":{"name":"Angola","code":"AO","code3":"AGO","numCode":24,"latitude":-12.5,"longitude":18.5},"AI":{"name":"Anguilla","code":"AI","code3":"AIA","numCode":660,"latitude":18.25,"longitude":-63.1667},"AQ":{"name":"Antarctica","code":"AQ","code3":"ATA","numCode":10,"latitude":-90,"longitude":0},"AG":{"name":"Antigua and Barbuda","code":"AG","code3":"ATG","numCode":28,"latitude":17.05,"longitude":-61.8},"AR":{"name":"Argentina","code":"AR","code3":"ARG","numCode":32,"latitude":-34,"longitude":-64},"AM":{"name":"Armenia","code":"AM","code3":"ARM","numCode":51,"latitude":40,"longitude":45},"AW":{"name":"Aruba","code":"AW","code3":"ABW","numCode":533,"latitude":12.5,"longitude":-69.9667},"AU":{"name":"Australia","code":"AU","code3":"AUS","numCode":36,"latitude":-27,"longitude":133},"AT":{"name":"Austria","code":"AT","code3":"AUT","numCode":40,"latitude":47.3333,"longitude":13.3333},"AZ":{"name":"Azerbaijan","code":"AZ","code3":"AZE","numCode":31,"latitude":40.5,"longitude":47.5},"BS":{"name":"Bahamas","code":"BS","code3":"BHS","numCode":44,"latitude":24.25,"longitude":-76},"BH":{"name":"Bahrain","code":"BH","code3":"BHR","numCode":48,"latitude":26,"longitude":50.55},"BD":{"name":"Bangladesh","code":"BD","code3":"BGD","numCode":50,"latitude":24,"longitude":90},"BB":{"name":"Barbados","code":"BB","code3":"BRB","numCode":52,"latitude":13.1667,"longitude":-59.5333},"BY":{"name":"Belarus","code":"BY","code3":"BLR","numCode":112,"latitude":53,"longitude":28},"BE":{"name":"Belgium","code":"BE","code3":"BEL","numCode":56,"latitude":50.8333,"longitude":4},"BZ":{"name":"Belize","code":"BZ","code3":"BLZ","numCode":84,"latitude":17.25,"longitude":-88.75},"BJ":{"name":"Benin","code":"BJ","code3":"BEN","numCode":204,"latitude":9.5,"longitude":2.25},"BM":{"name":"Bermuda","code":"BM","code3":"BMU","numCode":60,"latitude":32.3333,"longitude":-64.75},"BT":{"name":"Bhutan","code":"BT","code3":"BTN","numCode":64,"latitude":27.5,"longitude":90.5},"BO":{"name":"Bolivia, Plurinational State of","code":"BO","code3":"BOL","numCode":68,"latitude":-17,"longitude":-65},"BA":{"name":"Bosnia and Herzegovina","code":"BA","code3":"BIH","numCode":70,"latitude":44,"longitude":18},"BW":{"name":"Botswana","code":"BW","code3":"BWA","numCode":72,"latitude":-22,"longitude":24},"BV":{"name":"Bouvet Island","code":"BV","code3":"BVT","numCode":74,"latitude":-54.4333,"longitude":3.4},"BR":{"name":"Brazil","code":"BR","code3":"BRA","numCode":76,"latitude":-10,"longitude":-55},"IO":{"name":"British Indian Ocean Territory","code":"IO","code3":"IOT","numCode":86,"latitude":-6,"longitude":71.5},"BN":{"name":"Brunei Darussalam","code":"BN","code3":"BRN","numCode":96,"latitude":4.5,"longitude":114.6667},"BG":{"name":"Bulgaria","code":"BG","code3":"BGR","numCode":100,"latitude":43,"longitude":25},"BF":{"name":"Burkina Faso","code":"BF","code3":"BFA","numCode":854,"latitude":13,"longitude":-2},"BI":{"name":"Burundi","code":"BI","code3":"BDI","numCode":108,"latitude":-3.5,"longitude":30},"KH":{"name":"Cambodia","code":"KH","code3":"KHM","numCode":116,"latitude":13,"longitude":105},"CM":{"name":"Cameroon","code":"CM","code3":"CMR","numCode":120,"latitude":6,"longitude":12},"CA":{"name":"Canada","code":"CA","code3":"CAN","numCode":124,"latitude":60,"longitude":-95},"CV":{"name":"Cape Verde","code":"CV","code3":"CPV","numCode":132,"latitude":16,"longitude":-24},"KY":{"name":"Cayman Islands","code":"KY","code3":"CYM","numCode":136,"latitude":19.5,"longitude":-80.5},"CF":{"name":"Central African Republic","code":"CF","code3":"CAF","numCode":140,"latitude":7,"longitude":21},"TD":{"name":"Chad","code":"TD","code3":"TCD","numCode":148,"latitude":15,"longitude":19},"CL":{"name":"Chile","code":"CL","code3":"CHL","numCode":152,"latitude":-30,"longitude":-71},"CN":{"name":"China","code":"CN","code3":"CHN","numCode":156,"latitude":35,"longitude":105},"CX":{"name":"Christmas Island","code":"CX","code3":"CXR","numCode":162,"latitude":-10.5,"longitude":105.6667},"CC":{"name":"Cocos (Keeling) Islands","code":"CC","code3":"CCK","numCode":166,"latitude":-12.5,"longitude":96.8333},"CO":{"name":"Colombia","code":"CO","code3":"COL","numCode":170,"latitude":4,"longitude":-72},"KM":{"name":"Comoros","code":"KM","code3":"COM","numCode":174,"latitude":-12.1667,"longitude":44.25},"CG":{"name":"Congo","code":"CG","code3":"COG","numCode":178,"latitude":-1,"longitude":15},"CD":{"name":"Congo, the Democratic Republic of the","code":"CD","code3":"COD","numCode":180,"latitude":0,"longitude":25},"CK":{"name":"Cook Islands","code":"CK","code3":"COK","numCode":184,"latitude":-21.2333,"longitude":-159.7667},"CR":{"name":"Costa Rica","code":"CR","code3":"CRI","numCode":188,"latitude":10,"longitude":-84},"CI":{"name":"Côte d'Ivoire","code":"CI","code3":"CIV","numCode":384,"latitude":8,"longitude":-5},"HR":{"name":"Croatia","code":"HR","code3":"HRV","numCode":191,"latitude":45.1667,"longitude":15.5},"CU":{"name":"Cuba","code":"CU","code3":"CUB","numCode":192,"latitude":21.5,"longitude":-80},"CY":{"name":"Cyprus","code":"CY","code3":"CYP","numCode":196,"latitude":35,"longitude":33},"CZ":{"name":"Czech Republic","code":"CZ","code3":"CZE","numCode":203,"latitude":49.75,"longitude":15.5},"DK":{"name":"Denmark","code":"DK","code3":"DNK","numCode":208,"latitude":56,"longitude":10},"DJ":{"name":"Djibouti","code":"DJ","code3":"DJI","numCode":262,"latitude":11.5,"longitude":43},"DM":{"name":"Dominica","code":"DM","code3":"DMA","numCode":212,"latitude":15.4167,"longitude":-61.3333},"DO":{"name":"Dominican Republic","code":"DO","code3":"DOM","numCode":214,"latitude":19,"longitude":-70.6667},"EC":{"name":"Ecuador","code":"EC","code3":"ECU","numCode":218,"latitude":-2,"longitude":-77.5},"EG":{"name":"Egypt","code":"EG","code3":"EGY","numCode":818,"latitude":27,"longitude":30},"SV":{"name":"El Salvador","code":"SV","code3":"SLV","numCode":222,"latitude":13.8333,"longitude":-88.9167},"GQ":{"name":"Equatorial Guinea","code":"GQ","code3":"GNQ","numCode":226,"latitude":2,"longitude":10},"ER":{"name":"Eritrea","code":"ER","code3":"ERI","numCode":232,"latitude":15,"longitude":39},"EE":{"name":"Estonia","code":"EE","code3":"EST","numCode":233,"latitude":59,"longitude":26},"ET":{"name":"Ethiopia","code":"ET","code3":"ETH","numCode":231,"latitude":8,"longitude":38},"FK":{"name":"Falkland Islands (Malvinas)","code":"FK","code3":"FLK","numCode":238,"latitude":-51.75,"longitude":-59},"FO":{"name":"Faroe Islands","code":"FO","code3":"FRO","numCode":234,"latitude":62,"longitude":-7},"FJ":{"name":"Fiji","code":"FJ","code3":"FJI","numCode":242,"latitude":-18,"longitude":175},"FI":{"name":"Finland","code":"FI","code3":"FIN","numCode":246,"latitude":64,"longitude":26},"FR":{"name":"France","code":"FR","code3":"FRA","numCode":250,"latitude":46,"longitude":2},"GF":{"name":"French Guiana","code":"GF","code3":"GUF","numCode":254,"latitude":4,"longitude":-53},"PF":{"name":"French Polynesia","code":"PF","code3":"PYF","numCode":258,"latitude":-15,"longitude":-140},"TF":{"name":"French Southern Territories","code":"TF","code3":"ATF","numCode":260,"latitude":-43,"longitude":67},"GA":{"name":"Gabon","code":"GA","code3":"GAB","numCode":266,"latitude":-1,"longitude":11.75},"GM":{"name":"Gambia","code":"GM","code3":"GMB","numCode":270,"latitude":13.4667,"longitude":-16.5667},"GE":{"name":"Georgia","code":"GE","code3":"GEO","numCode":268,"latitude":42,"longitude":43.5},"DE":{"name":"Germany","code":"DE","code3":"DEU","numCode":276,"latitude":51,"longitude":9},"GH":{"name":"Ghana","code":"GH","code3":"GHA","numCode":288,"latitude":8,"longitude":-2},"GI":{"name":"Gibraltar","code":"GI","code3":"GIB","numCode":292,"latitude":36.1833,"longitude":-5.3667},"GR":{"name":"Greece","code":"GR","code3":"GRC","numCode":300,"latitude":39,"longitude":22},"GL":{"name":"Greenland","code":"GL","code3":"GRL","numCode":304,"latitude":72,"longitude":-40},"GD":{"name":"Grenada","code":"GD","code3":"GRD","numCode":308,"latitude":12.1167,"longitude":-61.6667},"GP":{"name":"Guadeloupe","code":"GP","code3":"GLP","numCode":312,"latitude":16.25,"longitude":-61.5833},"GU":{"name":"Guam","code":"GU","code3":"GUM","numCode":316,"latitude":13.4667,"longitude":144.7833},"GT":{"name":"Guatemala","code":"GT","code3":"GTM","numCode":320,"latitude":15.5,"longitude":-90.25},"GG":{"name":"Guernsey","code":"GG","code3":"GGY","numCode":831,"latitude":49.5,"longitude":-2.56},"GN":{"name":"Guinea","code":"GN","code3":"GIN","numCode":324,"latitude":11,"longitude":-10},"GW":{"name":"Guinea-Bissau","code":"GW","code3":"GNB","numCode":624,"latitude":12,"longitude":-15},"GY":{"name":"Guyana","code":"GY","code3":"GUY","numCode":328,"latitude":5,"longitude":-59},"HT":{"name":"Haiti","code":"HT","code3":"HTI","numCode":332,"latitude":19,"longitude":-72.4167},"HM":{"name":"Heard Island and McDonald Islands","code":"HM","code3":"HMD","numCode":334,"latitude":-53.1,"longitude":72.5167},"VA":{"name":"Holy See (Vatican City State)","code":"VA","code3":"VAT","numCode":336,"latitude":41.9,"longitude":12.45},"HN":{"name":"Honduras","code":"HN","code3":"HND","numCode":340,"latitude":15,"longitude":-86.5},"HK":{"name":"Hong Kong","code":"HK","code3":"HKG","numCode":344,"latitude":22.25,"longitude":114.1667},"HU":{"name":"Hungary","code":"HU","code3":"HUN","numCode":348,"latitude":47,"longitude":20},"IS":{"name":"Iceland","code":"IS","code3":"ISL","numCode":352,"latitude":65,"longitude":-18},"IN":{"name":"India","code":"IN","code3":"IND","numCode":356,"latitude":20,"longitude":77},"ID":{"name":"Indonesia","code":"ID","code3":"IDN","numCode":360,"latitude":-5,"longitude":120},"IR":{"name":"Iran, Islamic Republic of","code":"IR","code3":"IRN","numCode":364,"latitude":32,"longitude":53},"IQ":{"name":"Iraq","code":"IQ","code3":"IRQ","numCode":368,"latitude":33,"longitude":44},"IE":{"name":"Ireland","code":"IE","code3":"IRL","numCode":372,"latitude":53,"longitude":-8},"IM":{"name":"Isle of Man","code":"IM","code3":"IMN","numCode":833,"latitude":54.23,"longitude":-4.55},"IL":{"name":"Israel","code":"IL","code3":"ISR","numCode":376,"latitude":31.5,"longitude":34.75},"IT":{"name":"Italy","code":"IT","code3":"ITA","numCode":380,"latitude":42.8333,"longitude":12.8333},"JM":{"name":"Jamaica","code":"JM","code3":"JAM","numCode":388,"latitude":18.25,"longitude":-77.5},"JP":{"name":"Japan","code":"JP","code3":"JPN","numCode":392,"latitude":36,"longitude":138},"JE":{"name":"Jersey","code":"JE","code3":"JEY","numCode":832,"latitude":49.21,"longitude":-2.13},"JO":{"name":"Jordan","code":"JO","code3":"JOR","numCode":400,"latitude":31,"longitude":36},"KZ":{"name":"Kazakhstan","code":"KZ","code3":"KAZ","numCode":398,"latitude":48,"longitude":68},"KE":{"name":"Kenya","code":"KE","code3":"KEN","numCode":404,"latitude":1,"longitude":38},"KI":{"name":"Kiribati","code":"KI","code3":"KIR","numCode":296,"latitude":1.4167,"longitude":173},"KP":{"name":"Korea, Democratic People's Republic of","code":"KP","code3":"PRK","numCode":408,"latitude":40,"longitude":127},"KR":{"name":"Korea, Republic of","code":"KR","code3":"KOR","numCode":410,"latitude":37,"longitude":127.5},"KW":{"name":"Kuwait","code":"KW","code3":"KWT","numCode":414,"latitude":29.3375,"longitude":47.6581},"KG":{"name":"Kyrgyzstan","code":"KG","code3":"KGZ","numCode":417,"latitude":41,"longitude":75},"LA":{"name":"Lao People's Democratic Republic","code":"LA","code3":"LAO","numCode":418,"latitude":18,"longitude":105},"LV":{"name":"Latvia","code":"LV","code3":"LVA","numCode":428,"latitude":57,"longitude":25},"LB":{"name":"Lebanon","code":"LB","code3":"LBN","numCode":422,"latitude":33.8333,"longitude":35.8333},"LS":{"name":"Lesotho","code":"LS","code3":"LSO","numCode":426,"latitude":-29.5,"longitude":28.5},"LR":{"name":"Liberia","code":"LR","code3":"LBR","numCode":430,"latitude":6.5,"longitude":-9.5},"LY":{"name":"Libyan Arab Jamahiriya","code":"LY","code3":"LBY","numCode":434,"latitude":25,"longitude":17},"LI":{"name":"Liechtenstein","code":"LI","code3":"LIE","numCode":438,"latitude":47.1667,"longitude":9.5333},"LT":{"name":"Lithuania","code":"LT","code3":"LTU","numCode":440,"latitude":56,"longitude":24},"LU":{"name":"Luxembourg","code":"LU","code3":"LUX","numCode":442,"latitude":49.75,"longitude":6.1667},"MO":{"name":"Macao","code":"MO","code3":"MAC","numCode":446,"latitude":22.1667,"longitude":113.55},"MK":{"name":"Macedonia, the former Yugoslav Republic of","code":"MK","code3":"MKD","numCode":807,"latitude":41.8333,"longitude":22},"MG":{"name":"Madagascar","code":"MG","code3":"MDG","numCode":450,"latitude":-20,"longitude":47},"MW":{"name":"Malawi","code":"MW","code3":"MWI","numCode":454,"latitude":-13.5,"longitude":34},"MY":{"name":"Malaysia","code":"MY","code3":"MYS","numCode":458,"latitude":2.5,"longitude":112.5},"MV":{"name":"Maldives","code":"MV","code3":"MDV","numCode":462,"latitude":3.25,"longitude":73},"ML":{"name":"Mali","code":"ML","code3":"MLI","numCode":466,"latitude":17,"longitude":-4},"MT":{"name":"Malta","code":"MT","code3":"MLT","numCode":470,"latitude":35.8333,"longitude":14.5833},"MH":{"name":"Marshall Islands","code":"MH","code3":"MHL","numCode":584,"latitude":9,"longitude":168},"MQ":{"name":"Martinique","code":"MQ","code3":"MTQ","numCode":474,"latitude":14.6667,"longitude":-61},"MR":{"name":"Mauritania","code":"MR","code3":"MRT","numCode":478,"latitude":20,"longitude":-12},"MU":{"name":"Mauritius","code":"MU","code3":"MUS","numCode":480,"latitude":-20.2833,"longitude":57.55},"YT":{"name":"Mayotte","code":"YT","code3":"MYT","numCode":175,"latitude":-12.8333,"longitude":45.1667},"MX":{"name":"Mexico","code":"MX","code3":"MEX","numCode":484,"latitude":23,"longitude":-102},"FM":{"name":"Micronesia, Federated States of","code":"FM","code3":"FSM","numCode":583,"latitude":6.9167,"longitude":158.25},"MD":{"name":"Moldova, Republic of","code":"MD","code3":"MDA","numCode":498,"latitude":47,"longitude":29},"MC":{"name":"Monaco","code":"MC","code3":"MCO","numCode":492,"latitude":43.7333,"longitude":7.4},"MN":{"name":"Mongolia","code":"MN","code3":"MNG","numCode":496,"latitude":46,"longitude":105},"ME":{"name":"Montenegro","code":"ME","code3":"MNE","numCode":499,"latitude":42,"longitude":19},"MS":{"name":"Montserrat","code":"MS","code3":"MSR","numCode":500,"latitude":16.75,"longitude":-62.2},"MA":{"name":"Morocco","code":"MA","code3":"MAR","numCode":504,"latitude":32,"longitude":-5},"MZ":{"name":"Mozambique","code":"MZ","code3":"MOZ","numCode":508,"latitude":-18.25,"longitude":35},"MM":{"name":"Myanmar","code":"MM","code3":"MMR","numCode":104,"latitude":22,"longitude":98},"NA":{"name":"Namibia","code":"NA","code3":"NAM","numCode":516,"latitude":-22,"longitude":17},"NR":{"name":"Nauru","code":"NR","code3":"NRU","numCode":520,"latitude":-0.5333,"longitude":166.9167},"NP":{"name":"Nepal","code":"NP","code3":"NPL","numCode":524,"latitude":28,"longitude":84},"NL":{"name":"Netherlands","code":"NL","code3":"NLD","numCode":528,"latitude":52.5,"longitude":5.75},"AN":{"name":"Netherlands Antilles","code":"AN","code3":"ANT","numCode":530,"latitude":12.25,"longitude":-68.75},"NC":{"name":"New Caledonia","code":"NC","code3":"NCL","numCode":540,"latitude":-21.5,"longitude":165.5},"NZ":{"name":"New Zealand","code":"NZ","code3":"NZL","numCode":554,"latitude":-41,"longitude":174},"NI":{"name":"Nicaragua","code":"NI","code3":"NIC","numCode":558,"latitude":13,"longitude":-85},"NE":{"name":"Niger","code":"NE","code3":"NER","numCode":562,"latitude":16,"longitude":8},"NG":{"name":"Nigeria","code":"NG","code3":"NGA","numCode":566,"latitude":10,"longitude":8},"NU":{"name":"Niue","code":"NU","code3":"NIU","numCode":570,"latitude":-19.0333,"longitude":-169.8667},"NF":{"name":"Norfolk Island","code":"NF","code3":"NFK","numCode":574,"latitude":-29.0333,"longitude":167.95},"MP":{"name":"Northern Mariana Islands","code":"MP","code3":"MNP","numCode":580,"latitude":15.2,"longitude":145.75},"NO":{"name":"Norway","code":"NO","code3":"NOR","numCode":578,"latitude":62,"longitude":10},"OM":{"name":"Oman","code":"OM","code3":"OMN","numCode":512,"latitude":21,"longitude":57},"PK":{"name":"Pakistan","code":"PK","code3":"PAK","numCode":586,"latitude":30,"longitude":70},"PW":{"name":"Palau","code":"PW","code3":"PLW","numCode":585,"latitude":7.5,"longitude":134.5},"PS":{"name":"Palestinian Territory, Occupied","code":"PS","code3":"PSE","numCode":275,"latitude":32,"longitude":35.25},"PA":{"name":"Panama","code":"PA","code3":"PAN","numCode":591,"latitude":9,"longitude":-80},"PG":{"name":"Papua New Guinea","code":"PG","code3":"PNG","numCode":598,"latitude":-6,"longitude":147},"PY":{"name":"Paraguay","code":"PY","code3":"PRY","numCode":600,"latitude":-23,"longitude":-58},"PE":{"name":"Peru","code":"PE","code3":"PER","numCode":604,"latitude":-10,"longitude":-76},"PH":{"name":"Philippines","code":"PH","code3":"PHL","numCode":608,"latitude":13,"longitude":122},"PN":{"name":"Pitcairn","code":"PN","code3":"PCN","numCode":612,"latitude":-24.7,"longitude":-127.4},"PL":{"name":"Poland","code":"PL","code3":"POL","numCode":616,"latitude":52,"longitude":20},"PT":{"name":"Portugal","code":"PT","code3":"PRT","numCode":620,"latitude":39.5,"longitude":-8},"PR":{"name":"Puerto Rico","code":"PR","code3":"PRI","numCode":630,"latitude":18.25,"longitude":-66.5},"QA":{"name":"Qatar","code":"QA","code3":"QAT","numCode":634,"latitude":25.5,"longitude":51.25},"RE":{"name":"Réunion","code":"RE","code3":"REU","numCode":638,"latitude":-21.1,"longitude":55.6},"RO":{"name":"Romania","code":"RO","code3":"ROU","numCode":642,"latitude":46,"longitude":25},"RU":{"name":"Russian Federation","code":"RU","code3":"RUS","numCode":643,"latitude":60,"longitude":100},"RW":{"name":"Rwanda","code":"RW","code3":"RWA","numCode":646,"latitude":-2,"longitude":30},"SH":{"name":"Saint Helena, Ascension and Tristan da Cunha","code":"SH","code3":"SHN","numCode":654,"latitude":-15.9333,"longitude":-5.7},"KN":{"name":"Saint Kitts and Nevis","code":"KN","code3":"KNA","numCode":659,"latitude":17.3333,"longitude":-62.75},"LC":{"name":"Saint Lucia","code":"LC","code3":"LCA","numCode":662,"latitude":13.8833,"longitude":-61.1333},"PM":{"name":"Saint Pierre and Miquelon","code":"PM","code3":"SPM","numCode":666,"latitude":46.8333,"longitude":-56.3333},"VC":{"name":"Saint Vincent and the Grenadines","code":"VC","code3":"VCT","numCode":670,"latitude":13.25,"longitude":-61.2},"WS":{"name":"Samoa","code":"WS","code3":"WSM","numCode":882,"latitude":-13.5833,"longitude":-172.3333},"SM":{"name":"San Marino","code":"SM","code3":"SMR","numCode":674,"latitude":43.7667,"longitude":12.4167},"ST":{"name":"Sao Tome and Principe","code":"ST","code3":"STP","numCode":678,"latitude":1,"longitude":7},"SA":{"name":"Saudi Arabia","code":"SA","code3":"SAU","numCode":682,"latitude":25,"longitude":45},"SN":{"name":"Senegal","code":"SN","code3":"SEN","numCode":686,"latitude":14,"longitude":-14},"RS":{"name":"Serbia","code":"RS","code3":"SRB","numCode":688,"latitude":44,"longitude":21},"SC":{"name":"Seychelles","code":"SC","code3":"SYC","numCode":690,"latitude":-4.5833,"longitude":55.6667},"SL":{"name":"Sierra Leone","code":"SL","code3":"SLE","numCode":694,"latitude":8.5,"longitude":-11.5},"SG":{"name":"Singapore","code":"SG","code3":"SGP","numCode":702,"latitude":1.3667,"longitude":103.8},"SK":{"name":"Slovakia","code":"SK","code3":"SVK","numCode":703,"latitude":48.6667,"longitude":19.5},"SI":{"name":"Slovenia","code":"SI","code3":"SVN","numCode":705,"latitude":46,"longitude":15},"SB":{"name":"Solomon Islands","code":"SB","code3":"SLB","numCode":90,"latitude":-8,"longitude":159},"SO":{"name":"Somalia","code":"SO","code3":"SOM","numCode":706,"latitude":10,"longitude":49},"ZA":{"name":"South Africa","code":"ZA","code3":"ZAF","numCode":710,"latitude":-29,"longitude":24},"GS":{"name":"South Georgia and the South Sandwich Islands","code":"GS","code3":"SGS","numCode":239,"latitude":-54.5,"longitude":-37},"SS":{"name":"South Sudan","code":"SS","code3":"SSD","numCode":728,"latitude":8,"longitude":30},"ES":{"name":"Spain","code":"ES","code3":"ESP","numCode":724,"latitude":40,"longitude":-4},"LK":{"name":"Sri Lanka","code":"LK","code3":"LKA","numCode":144,"latitude":7,"longitude":81},"SD":{"name":"Sudan","code":"SD","code3":"SDN","numCode":736,"latitude":15,"longitude":30},"SR":{"name":"Suriname","code":"SR","code3":"SUR","numCode":740,"latitude":4,"longitude":-56},"SJ":{"name":"Svalbard and Jan Mayen","code":"SJ","code3":"SJM","numCode":744,"latitude":78,"longitude":20},"SZ":{"name":"Swaziland","code":"SZ","code3":"SWZ","numCode":748,"latitude":-26.5,"longitude":31.5},"SE":{"name":"Sweden","code":"SE","code3":"SWE","numCode":752,"latitude":62,"longitude":15},"CH":{"name":"Switzerland","code":"CH","code3":"CHE","numCode":756,"latitude":47,"longitude":8},"SY":{"name":"Syrian Arab Republic","code":"SY","code3":"SYR","numCode":760,"latitude":35,"longitude":38},"TW":{"name":"Taiwan, Province of China","code":"TW","code3":"TWN","numCode":158,"latitude":23.5,"longitude":121},"TJ":{"name":"Tajikistan","code":"TJ","code3":"TJK","numCode":762,"latitude":39,"longitude":71},"TZ":{"name":"Tanzania, United Republic of","code":"TZ","code3":"TZA","numCode":834,"latitude":-6,"longitude":35},"TH":{"name":"Thailand","code":"TH","code3":"THA","numCode":764,"latitude":15,"longitude":100},"TL":{"name":"Timor-Leste","code":"TL","code3":"TLS","numCode":626,"latitude":-8.55,"longitude":125.5167},"TG":{"name":"Togo","code":"TG","code3":"TGO","numCode":768,"latitude":8,"longitude":1.1667},"TK":{"name":"Tokelau","code":"TK","code3":"TKL","numCode":772,"latitude":-9,"longitude":-172},"TO":{"name":"Tonga","code":"TO","code3":"TON","numCode":776,"latitude":-20,"longitude":-175},"TT":{"name":"Trinidad and Tobago","code":"TT","code3":"TTO","numCode":780,"latitude":11,"longitude":-61},"TN":{"name":"Tunisia","code":"TN","code3":"TUN","numCode":788,"latitude":34,"longitude":9},"TR":{"name":"Turkey","code":"TR","code3":"TUR","numCode":792,"latitude":39,"longitude":35},"TM":{"name":"Turkmenistan","code":"TM","code3":"TKM","numCode":795,"latitude":40,"longitude":60},"TC":{"name":"Turks and Caicos Islands","code":"TC","code3":"TCA","numCode":796,"latitude":21.75,"longitude":-71.5833},"TV":{"name":"Tuvalu","code":"TV","code3":"TUV","numCode":798,"latitude":-8,"longitude":178},"UG":{"name":"Uganda","code":"UG","code3":"UGA","numCode":800,"latitude":1,"longitude":32},"UA":{"name":"Ukraine","code":"UA","code3":"UKR","numCode":804,"latitude":49,"longitude":32},"AE":{"name":"United Arab Emirates","code":"AE","code3":"ARE","numCode":784,"latitude":24,"longitude":54},"GB":{"name":"United Kingdom","code":"GB","code3":"GBR","numCode":826,"latitude":54,"longitude":-2},"US":{"name":"United States","code":"US","code3":"USA","numCode":840,"latitude":38,"longitude":-97},"UM":{"name":"United States Minor Outlying Islands","code":"UM","code3":"UMI","numCode":581,"latitude":19.2833,"longitude":166.6},"UY":{"name":"Uruguay","code":"UY","code3":"URY","numCode":858,"latitude":-33,"longitude":-56},"UZ":{"name":"Uzbekistan","code":"UZ","code3":"UZB","numCode":860,"latitude":41,"longitude":64},"VU":{"name":"Vanuatu","code":"VU","code3":"VUT","numCode":548,"latitude":-16,"longitude":167},"VE":{"name":"Venezuela, Bolivarian Republic of","code":"VE","code3":"VEN","numCode":862,"latitude":8,"longitude":-66},"VN":{"name":"Viet Nam","code":"VN","code3":"VNM","numCode":704,"latitude":16,"longitude":106},"VG":{"name":"Virgin Islands, British","code":"VG","code3":"VGB","numCode":92,"latitude":18.5,"longitude":-64.5},"VI":{"name":"Virgin Islands, U.S.","code":"VI","code3":"VIR","numCode":850,"latitude":18.3333,"longitude":-64.8333},"WF":{"name":"Wallis and Futuna","code":"WF","code3":"WLF","numCode":876,"latitude":-13.3,"longitude":-176.2},"EH":{"name":"Western Sahara","code":"EH","code3":"ESH","numCode":732,"latitude":24.5,"longitude":-13},"YE":{"name":"Yemen","code":"YE","code3":"YEM","numCode":887,"latitude":15,"longitude":48},"ZM":{"name":"Zambia","code":"ZM","code3":"ZMB","numCode":894,"latitude":-15,"longitude":30},"ZW":{"name":"Zimbabwe","code":"ZW","code3":"ZWE","numCode":716,"latitude":-20,"longitude":30}}